%time,field.header.seq,field.header.stamp,field.header.frame_id,field.name0,field.name1,field.name2,field.name3,field.name4,field.position0,field.position1,field.position2,field.position3,field.position4,field.velocity0,field.velocity1,field.velocity2,field.velocity3,field.velocity4,field.effort0,field.effort1,field.effort2,field.effort3,field.effort4
373513000000,18649,373513000000,,end,joint2,joint4,joint6,motortom2m,7.07803415141e-05,-8.00476706138e-05,-5.29888808263e-05,1.974292472e-05,-5.43105913335e-05,1.2163727224e-12,-7.18485162602e-13,-2.57381406278e-13,1.87562365839e-13,-9.6359522823e-13,0.0,0.0,0.0,0.0,0.0
373533000000,18650,373533000000,,end,joint2,joint4,joint6,motortom2m,7.07803415141e-05,-8.00476706138e-05,-5.29888808263e-05,1.974292472e-05,-5.43105913335e-05,1.21637272321e-12,-7.18485161162e-13,-2.5738140491e-13,1.87562367027e-13,-9.63595226862e-13,0.0,0.0,0.0,0.0,0.0
373549000000,2289,373548000000,,motortom2m,joint2,joint4,joint6,end,-5.43105913335e-05,-8.00476706138e-05,-5.29888808263e-05,1.974292472e-05,7.07803415141e-05,-9.63595226862e-13,-7.18485161162e-13,-2.5738140491e-13,1.87562367027e-13,1.21637272321e-12,0.0,0.0,0.0,0.0,0.0
373553000000,18651,373553000000,,end,joint2,joint4,joint6,motortom2m,7.07803415141e-05,-8.00476706138e-05,-5.29888808263e-05,1.974292472e-05,-5.43105913335e-05,1.21637272278e-12,-7.18485161957e-13,-2.57381405661e-13,1.87562366378e-13,-9.63595227619e-13,0.0,0.0,0.0,0.0,0.0
373573000000,18652,373573000000,,end,joint2,joint4,joint6,motortom2m,7.07803415141e-05,-8.00476706138e-05,-5.29888808263e-05,1.974292472e-05,-5.43105913335e-05,1.21637272224e-12,-7.18485162884e-13,-2.57381406546e-13,1.87562365604e-13,-9.63595228497e-13,0.0,0.0,0.0,0.0,0.0
373593000000,18653,373593000000,,end,joint2,joint4,joint6,motortom2m,7.07803415141e-05,-8.00476706138e-05,-5.29888808281e-05,1.97429247191e-05,-5.43105913335e-05,1.21637272323e-12,-7.18485161184e-13,-2.57381404923e-13,1.87562367024e-13,-9.63595226887e-13,0.0,0.0,0.0,0.0,0.0
373613000000,18654,373613000000,,end,joint2,joint4,joint6,motortom2m,7.07803415141e-05,-8.00476706129e-05,-5.29888808263e-05,1.974292472e-05,-5.43105913335e-05,1.21637272243e-12,-7.18485162562e-13,-2.57381406239e-13,1.87562365873e-13,-9.63595228192e-13,0.0,0.0,0.0,0.0,0.0
373633000000,18655,373633000000,,end,joint2,joint4,joint6,motortom2m,7.07803415141e-05,-8.00476706129e-05,-5.29888808263e-05,1.97429247191e-05,-5.43105913335e-05,1.21637272154e-12,-7.18485164092e-13,-2.573814077e-13,1.87562364595e-13,-9.6359522964e-13,0.0,0.0,0.0,0.0,0.0
373648000000,2290,373647000000,,motortom2m,joint2,joint4,joint6,end,-5.43105913335e-05,-8.00476706129e-05,-5.29888808263e-05,1.97429247191e-05,7.07803415141e-05,-9.6359522964e-13,-7.18485164092e-13,-2.573814077e-13,1.87562364595e-13,1.21637272154e-12,0.0,0.0,0.0,0.0,0.0
373653000000,18656,373653000000,,end,joint2,joint4,joint6,motortom2m,7.07803415141e-05,-8.00476706129e-05,-5.29888808263e-05,1.974292472e-05,-5.43105913335e-05,1.21637272313e-12,-7.18485161358e-13,-2.57381405089e-13,1.87562366878e-13,-9.63595227051e-13,0.0,0.0,0.0,0.0,0.0
373673000000,18657,373673000000,,end,joint2,joint4,joint6,motortom2m,7.07803415141e-05,-8.00476706138e-05,-5.29888808263e-05,1.97429247191e-05,-5.43105913335e-05,1.21637272128e-12,-7.18485164486e-13,-2.57381408084e-13,1.87562364251e-13,-9.63595230009e-13,0.0,0.0,0.0,0.0,0.0
373693000000,18658,373693000000,,end,joint2,joint4,joint6,motortom2m,7.07803415141e-05,-8.00476706138e-05,-5.29888808263e-05,1.974292472e-05,-5.43105913335e-05,1.21637272108e-12,-7.18485164891e-13,-2.57381408463e-13,1.87562363929e-13,-9.63595230397e-13,0.0,0.0,0.0,0.0,0.0
373713000000,18659,373713000000,,end,joint2,joint4,joint6,motortom2m,7.07803415141e-05,-8.00476706138e-05,-5.29888808263e-05,1.97429247191e-05,-5.43105913335e-05,1.21637272426e-12,-7.18485159416e-13,-2.57381403236e-13,1.87562368499e-13,-9.63595225213e-13,0.0,0.0,0.0,0.0,0.0
373733000000,18660,373733000000,,end,joint2,joint4,joint6,motortom2m,7.07803415141e-05,-8.00476706138e-05,-5.29888808281e-05,1.974292472e-05,-5.43105913318e-05,1.21637272314e-12,-7.18485161333e-13,-2.57381405066e-13,1.87562366899e-13,-9.63595227028e-13,0.0,0.0,0.0,0.0,0.0
373749000000,2291,373747000000,,motortom2m,joint2,joint4,joint6,end,-5.43105913318e-05,-8.00476706138e-05,-5.29888808281e-05,1.974292472e-05,7.07803415141e-05,-9.63595227028e-13,-7.18485161333e-13,-2.57381405066e-13,1.87562366899e-13,1.21637272314e-12,0.0,0.0,0.0,0.0,0.0
373753000000,18661,373753000000,,end,joint2,joint4,joint6,motortom2m,7.07803415141e-05,-8.00476706138e-05,-5.29888808263e-05,1.974292472e-05,-5.43105913335e-05,1.2163727218e-12,-7.18485163588e-13,-2.57381407227e-13,1.87562365001e-13,-9.63595229159e-13,0.0,0.0,0.0,0.0,0.0
373776000000,18662,373773000000,,end,joint2,joint4,joint6,motortom2m,7.07803415141e-05,-8.00476706138e-05,-5.29888808263e-05,1.974292472e-05,-5.43105913318e-05,1.21637272289e-12,-7.18485161758e-13,-2.57381405472e-13,1.87562366543e-13,-9.63595227431e-13,0.0,0.0,0.0,0.0,0.0
373793000000,18663,373793000000,,end,joint2,joint4,joint6,motortom2m,7.07803415141e-05,-8.00476706138e-05,-5.29888808263e-05,1.974292472e-05,-5.43105913335e-05,1.21637272269e-12,-7.18485162111e-13,-2.57381405809e-13,1.87562366249e-13,-9.63595227764e-13,0.0,0.0,0.0,0.0,0.0
373813000000,18664,373813000000,,end,joint2,joint4,joint6,motortom2m,7.07803415141e-05,-8.00476706138e-05,-5.29888808281e-05,1.974292472e-05,-5.43105913335e-05,1.21637272107e-12,-7.18485164894e-13,-2.57381408466e-13,1.87562363927e-13,-9.635952304e-13,0.0,0.0,0.0,0.0,0.0
373833000000,18665,373833000000,,end,joint2,joint4,joint6,motortom2m,7.07803415141e-05,-8.00476706138e-05,-5.29888808263e-05,1.974292472e-05,-5.43105913335e-05,1.21637272189e-12,-7.18485163491e-13,-2.57381407126e-13,1.87562365097e-13,-9.63595229071e-13,0.0,0.0,0.0,0.0,0.0
373848000000,2292,373847000000,,motortom2m,joint2,joint4,joint6,end,-5.43105913335e-05,-8.00476706138e-05,-5.29888808263e-05,1.974292472e-05,7.07803415141e-05,-9.63595229071e-13,-7.18485163491e-13,-2.57381407126e-13,1.87562365097e-13,1.21637272189e-12,0.0,0.0,0.0,0.0,0.0
373853000000,18666,373853000000,,end,joint2,joint4,joint6,motortom2m,7.07803415141e-05,-8.00476706138e-05,-5.29888808263e-05,1.974292472e-05,-5.43105913335e-05,1.21637272239e-12,-7.18485162623e-13,-2.57381406297e-13,1.87562365822e-13,-9.63595228249e-13,0.0,0.0,0.0,0.0,0.0
373873000000,18667,373873000000,,end,joint2,joint4,joint6,motortom2m,7.07803415141e-05,-8.00476706138e-05,-5.29888808263e-05,1.974292472e-05,-5.43105913335e-05,1.21637272197e-12,-7.18485163353e-13,-2.57381406994e-13,1.87562365213e-13,-9.6359522894e-13,0.0,0.0,0.0,0.0,0.0
373893000000,18668,373893000000,,end,joint2,joint4,joint6,motortom2m,7.0780341515e-05,-8.00476706129e-05,-5.29888808263e-05,1.974292472e-05,-5.43105913344e-05,1.21637272224e-12,-7.18485162889e-13,-2.57381406551e-13,1.875623656e-13,-9.63595228502e-13,0.0,0.0,0.0,0.0,0.0
373913000000,18669,373913000000,,end,joint2,joint4,joint6,motortom2m,7.0780341515e-05,-8.00476706129e-05,-5.29888808263e-05,1.974292472e-05,-5.43105913335e-05,1.21637272149e-12,-7.18485164168e-13,-2.57381407773e-13,1.87562364532e-13,-9.63595229712e-13,0.0,0.0,0.0,0.0,0.0
373933000000,18670,373933000000,,end,joint2,joint4,joint6,motortom2m,7.0780341515e-05,-8.00476706129e-05,-5.29888808263e-05,1.974292472e-05,-5.43105913335e-05,1.21637272218e-12,-7.18485162986e-13,-2.57381406644e-13,1.87562365518e-13,-9.63595228593e-13,0.0,0.0,0.0,0.0,0.0
373948000000,2293,373947000000,,motortom2m,joint2,joint4,joint6,end,-5.43105913335e-05,-8.00476706129e-05,-5.29888808263e-05,1.974292472e-05,7.0780341515e-05,-9.63595228593e-13,-7.18485162986e-13,-2.57381406644e-13,1.87562365518e-13,1.21637272218e-12,0.0,0.0,0.0,0.0,0.0
373953000000,18671,373953000000,,end,joint2,joint4,joint6,motortom2m,7.0780341515e-05,-8.0047670612e-05,-5.29888808281e-05,1.974292472e-05,-5.43105913335e-05,1.21637272288e-12,-7.18485161945e-13,-2.57381405626e-13,1.87562366433e-13,-9.63595227621e-13,0.0,0.0,0.0,0.0,0.0
373973000000,18672,373973000000,,end,joint2,joint4,joint6,motortom2m,7.0780341515e-05,-8.0047670612e-05,-5.29888808263e-05,1.974292472e-05,-5.43105913335e-05,1.21637272127e-12,-7.18485164549e-13,-2.57381408136e-13,1.87562364214e-13,-9.63595230073e-13,0.0,0.0,0.0,0.0,0.0
373993000000,18673,373993000000,,end,joint2,joint4,joint6,motortom2m,7.0780341515e-05,-8.0047670612e-05,-5.29888808263e-05,1.974292472e-05,-5.43105913335e-05,1.21637272323e-12,-7.18485161177e-13,-2.57381404918e-13,1.87562367028e-13,-9.6359522688e-13,0.0,0.0,0.0,0.0,0.0
374013000000,18674,374013000000,,end,joint2,joint4,joint6,motortom2m,7.0780341515e-05,-8.0047670612e-05,-5.29888808263e-05,1.974292472e-05,-5.43105913335e-05,1.21637272304e-12,-7.18485161508e-13,-2.57381405232e-13,1.87562366753e-13,-9.63595227193e-13,0.0,0.0,0.0,0.0,0.0
374033000000,18675,374033000000,,end,joint2,joint4,joint6,motortom2m,7.0780341515e-05,-8.0047670612e-05,-5.29888808281e-05,1.974292472e-05,-5.43105913335e-05,1.21637272263e-12,-7.18485162364e-13,-2.57381406026e-13,1.87562366083e-13,-9.63595228017e-13,0.0,0.0,0.0,0.0,0.0
374049000000,2294,374047000000,,motortom2m,joint2,joint4,joint6,end,-5.43105913335e-05,-8.0047670612e-05,-5.29888808281e-05,1.974292472e-05,7.0780341515e-05,-9.63595228017e-13,-7.18485162364e-13,-2.57381406026e-13,1.87562366083e-13,1.21637272263e-12,0.0,0.0,0.0,0.0,0.0
374053000000,18676,374053000000,,end,joint2,joint4,joint6,motortom2m,7.0780341515e-05,-8.0047670612e-05,-5.29888808263e-05,1.974292472e-05,-5.43105913335e-05,1.2163727227e-12,-7.18485162087e-13,-2.57381405787e-13,1.87562366268e-13,-9.63595227742e-13,0.0,0.0,0.0,0.0,0.0
374073000000,18677,374073000000,,end,joint2,joint4,joint6,motortom2m,7.0780341515e-05,-8.0047670612e-05,-5.29888808263e-05,1.974292472e-05,-5.43105913335e-05,1.21637272216e-12,-7.18485163031e-13,-2.57381406687e-13,1.87562365481e-13,-9.63595228635e-13,0.0,0.0,0.0,0.0,0.0
374093000000,18678,374093000000,,end,joint2,joint4,joint6,motortom2m,7.0780341515e-05,-8.0047670612e-05,-5.29888808263e-05,1.974292472e-05,-5.43105913335e-05,1.21637272161e-12,-7.18485163976e-13,-2.5738140759e-13,1.87562364692e-13,-9.6359522953e-13,0.0,0.0,0.0,0.0,0.0
374113000000,18679,374113000000,,end,joint2,joint4,joint6,motortom2m,7.0780341515e-05,-8.0047670612e-05,-5.29888808263e-05,1.974292472e-05,-5.43105913335e-05,1.21637272302e-12,-7.18485161697e-13,-2.5738140539e-13,1.8756236664e-13,-9.63595227386e-13,0.0,0.0,0.0,0.0,0.0
374133000000,18680,374133000000,,end,joint2,joint4,joint6,motortom2m,7.0780341515e-05,-8.0047670612e-05,-5.29888808263e-05,1.97429247208e-05,-5.43105913335e-05,1.21637272149e-12,-7.18485164174e-13,-2.57381407778e-13,1.87562364527e-13,-9.63595229718e-13,0.0,0.0,0.0,0.0,0.0
374148000000,2295,374147000000,,motortom2m,joint2,joint4,joint6,end,-5.43105913335e-05,-8.0047670612e-05,-5.29888808263e-05,1.97429247208e-05,7.0780341515e-05,-9.63595229718e-13,-7.18485164174e-13,-2.57381407778e-13,1.87562364527e-13,1.21637272149e-12,0.0,0.0,0.0,0.0,0.0
374153000000,18681,374153000000,,end,joint2,joint4,joint6,motortom2m,7.0780341515e-05,-8.0047670612e-05,-5.29888808263e-05,1.974292472e-05,-5.43105913335e-05,1.21637272171e-12,-7.184851638e-13,-2.57381407421e-13,1.8756236484e-13,-9.63595229364e-13,0.0,0.0,0.0,0.0,0.0
374173000000,18682,374173000000,,end,joint2,joint4,joint6,motortom2m,7.0780341515e-05,-8.00476706129e-05,-5.29888808281e-05,1.97429247208e-05,-5.43105913335e-05,1.21637272517e-12,-7.18485157838e-13,-2.57381401729e-13,1.87562369816e-13,-9.63595223719e-13,0.0,0.0,0.0,0.0,0.0
374193000000,18683,374193000000,,end,joint2,joint4,joint6,motortom2m,7.0780341515e-05,-8.00476706129e-05,-5.29888808263e-05,1.974292472e-05,-5.43105913335e-05,1.21637272291e-12,-7.18485161734e-13,-2.57381405449e-13,1.87562366564e-13,-9.63595227408e-13,0.0,0.0,0.0,0.0,0.0
374213000000,18684,374213000000,,end,joint2,joint4,joint6,motortom2m,7.0780341515e-05,-8.00476706129e-05,-5.29888808263e-05,1.97429247208e-05,-5.43105913335e-05,1.21637272131e-12,-7.18485164484e-13,-2.57381408074e-13,1.87562364269e-13,-9.63595230012e-13,0.0,0.0,0.0,0.0,0.0
374233000000,18685,374233000000,,end,joint2,joint4,joint6,motortom2m,7.0780341515e-05,-8.00476706138e-05,-5.29888808263e-05,1.974292472e-05,-5.43105913335e-05,1.21637272255e-12,-7.18485162254e-13,-2.57381405961e-13,1.87562366099e-13,-9.63595227891e-13,0.0,0.0,0.0,0.0,0.0
374248000000,2296,374247000000,,motortom2m,joint2,joint4,joint6,end,-5.43105913335e-05,-8.00476706138e-05,-5.29888808263e-05,1.974292472e-05,7.0780341515e-05,-9.63595227891e-13,-7.18485162254e-13,-2.57381405961e-13,1.87562366099e-13,1.21637272255e-12,0.0,0.0,0.0,0.0,0.0
374253000000,18686,374253000000,,end,joint2,joint4,joint6,motortom2m,7.0780341515e-05,-8.00476706138e-05,-5.29888808281e-05,1.97429247208e-05,-5.43105913335e-05,1.2163727199e-12,-7.18485166809e-13,-2.57381410309e-13,1.87562362299e-13,-9.63595232204e-13,0.0,0.0,0.0,0.0,0.0
374273000000,18687,374273000000,,end,joint2,joint4,joint6,motortom2m,7.0780341515e-05,-8.00476706138e-05,-5.29888808263e-05,1.974292472e-05,-5.43105913335e-05,1.21637272254e-12,-7.18485162368e-13,-2.57381406054e-13,1.87562366035e-13,-9.63595228008e-13,0.0,0.0,0.0,0.0,0.0
374293000000,18688,374293000000,,end,joint2,joint4,joint6,motortom2m,7.0780341515e-05,-8.00476706138e-05,-5.29888808263e-05,1.97429247208e-05,-5.43105913335e-05,1.21637272392e-12,-7.18485159994e-13,-2.57381403788e-13,1.87562368016e-13,-9.6359522576e-13,0.0,0.0,0.0,0.0,0.0
374313000000,18689,374313000000,,end,joint2,joint4,joint6,motortom2m,7.0780341515e-05,-8.00476706138e-05,-5.29888808263e-05,1.97429247208e-05,-5.43105913335e-05,1.21637272044e-12,-7.18485165886e-13,-2.57381409428e-13,1.87562363069e-13,-9.6359523133e-13,0.0,0.0,0.0,0.0,0.0
374333000000,18690,374333000000,,end,joint2,joint4,joint6,motortom2m,7.0780341515e-05,-8.00476706138e-05,-5.29888808263e-05,1.97429247208e-05,-5.43105913335e-05,1.21637272316e-12,-7.18485161301e-13,-2.57381405035e-13,1.87562366925e-13,-9.63595226998e-13,0.0,0.0,0.0,0.0,0.0
374348000000,2297,374347000000,,motortom2m,joint2,joint4,joint6,end,-5.43105913335e-05,-8.00476706138e-05,-5.29888808263e-05,1.97429247208e-05,7.0780341515e-05,-9.63595226998e-13,-7.18485161301e-13,-2.57381405035e-13,1.87562366925e-13,1.21637272316e-12,0.0,0.0,0.0,0.0,0.0
374353000000,18691,374353000000,,end,joint2,joint4,joint6,motortom2m,7.0780341515e-05,-8.00476706138e-05,-5.29888808263e-05,1.97429247208e-05,-5.43105913335e-05,1.21637272415e-12,-7.1848515959e-13,-2.57381403401e-13,1.87562368353e-13,-9.63595225377e-13,0.0,0.0,0.0,0.0,0.0
374378000000,18692,374373000000,,end,joint2,joint4,joint6,motortom2m,7.0780341515e-05,-8.00476706138e-05,-5.29888808263e-05,1.97429247208e-05,-5.43105913335e-05,1.21637272184e-12,-7.18485163576e-13,-2.57381407207e-13,1.87562365026e-13,-9.63595229152e-13,0.0,0.0,0.0,0.0,0.0
374393000000,18693,374393000000,,end,joint2,joint4,joint6,motortom2m,7.0780341515e-05,-8.00476706138e-05,-5.29888808281e-05,1.97429247208e-05,-5.43105913335e-05,1.21637272187e-12,-7.18485163414e-13,-2.57381407068e-13,1.87562365132e-13,-9.63595228989e-13,0.0,0.0,0.0,0.0,0.0
374413000000,18694,374413000000,,end,joint2,joint4,joint6,motortom2m,7.0780341515e-05,-8.00476706138e-05,-5.29888808263e-05,1.97429247208e-05,-5.43105913335e-05,1.21637272191e-12,-7.18485163455e-13,-2.57381407092e-13,1.87562365127e-13,-9.63595229037e-13,0.0,0.0,0.0,0.0,0.0
374433000000,18695,374433000000,,end,joint2,joint4,joint6,motortom2m,7.0780341515e-05,-8.00476706138e-05,-5.29888808263e-05,1.97429247208e-05,-5.43105913335e-05,1.21637272156e-12,-7.18485164054e-13,-2.57381407664e-13,1.87562364627e-13,-9.63595229604e-13,0.0,0.0,0.0,0.0,0.0
374448000000,2298,374447000000,,motortom2m,joint2,joint4,joint6,end,-5.43105913335e-05,-8.00476706138e-05,-5.29888808263e-05,1.97429247208e-05,7.0780341515e-05,-9.63595229604e-13,-7.18485164054e-13,-2.57381407664e-13,1.87562364627e-13,1.21637272156e-12,0.0,0.0,0.0,0.0,0.0
374453000000,18696,374453000000,,end,joint2,joint4,joint6,motortom2m,7.0780341515e-05,-8.00476706129e-05,-5.29888808263e-05,1.97429247208e-05,-5.43105913335e-05,1.2163727215e-12,-7.18485164161e-13,-2.57381407766e-13,1.87562364539e-13,-9.63595229706e-13,0.0,0.0,0.0,0.0,0.0
374473000000,18697,374473000000,,end,joint2,joint4,joint6,motortom2m,7.0780341515e-05,-8.00476706129e-05,-5.29888808281e-05,1.97429247208e-05,-5.43105913335e-05,1.21637272117e-12,-7.1848516463e-13,-2.57381408229e-13,1.87562364117e-13,-9.63595230141e-13,0.0,0.0,0.0,0.0,0.0
374493000000,18698,374493000000,,end,joint2,joint4,joint6,motortom2m,7.0780341515e-05,-8.00476706129e-05,-5.29888808263e-05,1.97429247208e-05,-5.43105913335e-05,1.21637272326e-12,-7.18485161123e-13,-2.57381404865e-13,1.87562367074e-13,-9.63595226829e-13,0.0,0.0,0.0,0.0,0.0
374513000000,18699,374513000000,,end,joint2,joint4,joint6,motortom2m,7.0780341515e-05,-8.00476706138e-05,-5.29888808263e-05,1.97429247208e-05,-5.43105913335e-05,1.21637272252e-12,-7.18485162308e-13,-2.57381406012e-13,1.87562366055e-13,-9.63595227942e-13,0.0,0.0,0.0,0.0,0.0
374533000000,18700,374533000000,,end,joint2,joint4,joint6,motortom2m,7.0780341515e-05,-8.00476706138e-05,-5.29888808263e-05,1.97429247208e-05,-5.43105913335e-05,1.21637272247e-12,-7.18485162383e-13,-2.57381406084e-13,1.87562365992e-13,-9.63595228014e-13,0.0,0.0,0.0,0.0,0.0
374548000000,2299,374547000000,,motortom2m,joint2,joint4,joint6,end,-5.43105913335e-05,-8.00476706138e-05,-5.29888808263e-05,1.97429247208e-05,7.0780341515e-05,-9.63595228014e-13,-7.18485162383e-13,-2.57381406084e-13,1.87562365992e-13,1.21637272247e-12,0.0,0.0,0.0,0.0,0.0
374553000000,18701,374553000000,,end,joint2,joint4,joint6,motortom2m,7.0780341515e-05,-8.00476706138e-05,-5.29888808263e-05,1.97429247208e-05,-5.43105913335e-05,1.21637272238e-12,-7.18485162591e-13,-2.57381406275e-13,1.87562365834e-13,-9.63595228215e-13,0.0,0.0,0.0,0.0,0.0
374573000000,18702,374573000000,,end,joint2,joint4,joint6,motortom2m,7.0780341515e-05,-8.00476706138e-05,-5.29888808263e-05,1.97429247208e-05,-5.43105913335e-05,1.21637272341e-12,-7.18485160866e-13,-2.5738140462e-13,1.87562367288e-13,-9.63595226586e-13,0.0,0.0,0.0,0.0,0.0
374593000000,18703,374593000000,,end,joint2,joint4,joint6,motortom2m,7.0780341515e-05,-8.00476706138e-05,-5.29888808263e-05,1.97429247208e-05,-5.43105913335e-05,1.2163727215e-12,-7.18485164059e-13,-2.57381407684e-13,1.87562364593e-13,-9.635952296e-13,0.0,0.0,0.0,0.0,0.0
374613000000,18704,374613000000,,end,joint2,joint4,joint6,motortom2m,7.0780341515e-05,-8.00476706138e-05,-5.29888808281e-05,1.97429247208e-05,-5.43105913335e-05,1.21637272179e-12,-7.18485163552e-13,-2.573814072e-13,1.87562365016e-13,-9.6359522912e-13,0.0,0.0,0.0,0.0,0.0
374633000000,18705,374633000000,,end,joint2,joint4,joint6,motortom2m,7.07803415141e-05,-8.00476706138e-05,-5.29888808263e-05,1.97429247208e-05,-5.43105913335e-05,1.21637272356e-12,-7.18485160613e-13,-2.57381404378e-13,1.875623675e-13,-9.63595226346e-13,0.0,0.0,0.0,0.0,0.0
374648000000,2300,374647000000,,motortom2m,joint2,joint4,joint6,end,-5.43105913335e-05,-8.00476706138e-05,-5.29888808263e-05,1.97429247208e-05,7.07803415141e-05,-9.63595226346e-13,-7.18485160613e-13,-2.57381404378e-13,1.875623675e-13,1.21637272356e-12,0.0,0.0,0.0,0.0,0.0
374653000000,18706,374653000000,,end,joint2,joint4,joint6,motortom2m,7.07803415141e-05,-8.00476706138e-05,-5.29888808263e-05,1.97429247208e-05,-5.43105913335e-05,1.21637272017e-12,-7.18485166445e-13,-2.57381409946e-13,1.87562362632e-13,-9.63595231868e-13,0.0,0.0,0.0,0.0,0.0
374673000000,18707,374673000000,,end,joint2,joint4,joint6,motortom2m,7.07803415141e-05,-8.00476706138e-05,-5.29888808263e-05,1.97429247208e-05,-5.43105913318e-05,1.2163727224e-12,-7.18485162611e-13,-2.57381406286e-13,1.87562365832e-13,-9.63595228238e-13,0.0,0.0,0.0,0.0,0.0
374693000000,18708,374693000000,,end,joint2,joint4,joint6,motortom2m,7.07803415141e-05,-8.00476706138e-05,-5.29888808281e-05,1.97429247208e-05,-5.43105913335e-05,1.21637272271e-12,-7.18485161968e-13,-2.57381405687e-13,1.87562366339e-13,-9.6359522762e-13,0.0,0.0,0.0,0.0,0.0
374713000000,18709,374713000000,,end,joint2,joint4,joint6,motortom2m,7.07803415141e-05,-8.00476706138e-05,-5.29888808263e-05,1.97429247208e-05,-5.43105913335e-05,1.21637272141e-12,-7.18485164314e-13,-2.57381407912e-13,1.8756236441e-13,-9.6359522985e-13,0.0,0.0,0.0,0.0,0.0
374733000000,18710,374733000000,,end,joint2,joint4,joint6,motortom2m,7.07803415141e-05,-8.00476706129e-05,-5.29888808263e-05,1.97429247208e-05,-5.43105913335e-05,1.21637272386e-12,-7.184851601e-13,-2.57381403889e-13,1.87562367928e-13,-9.63595225861e-13,0.0,0.0,0.0,0.0,0.0
374748000000,2301,374747000000,,motortom2m,joint2,joint4,joint6,end,-5.43105913335e-05,-8.00476706129e-05,-5.29888808263e-05,1.97429247208e-05,7.07803415141e-05,-9.63595225861e-13,-7.184851601e-13,-2.57381403889e-13,1.87562367928e-13,1.21637272386e-12,0.0,0.0,0.0,0.0,0.0
374753000000,18711,374753000000,,end,joint2,joint4,joint6,motortom2m,7.07803415141e-05,-8.00476706129e-05,-5.29888808263e-05,1.97429247208e-05,-5.43105913335e-05,1.21637272259e-12,-7.18485162281e-13,-2.57381405971e-13,1.87562366108e-13,-9.63595227925e-13,0.0,0.0,0.0,0.0,0.0
374773000000,18712,374773000000,,end,joint2,joint4,joint6,motortom2m,7.07803415141e-05,-8.00476706129e-05,-5.29888808263e-05,1.97429247208e-05,-5.43105913335e-05,1.21637272022e-12,-7.18485166358e-13,-2.57381409863e-13,1.87562362705e-13,-9.63595231786e-13,0.0,0.0,0.0,0.0,0.0
374793000000,18713,374793000000,,end,joint2,joint4,joint6,motortom2m,7.07803415141e-05,-8.0047670612e-05,-5.29888808263e-05,1.97429247208e-05,-5.43105913335e-05,1.21637272091e-12,-7.1848516518e-13,-2.57381408738e-13,1.87562363688e-13,-9.6359523067e-13,0.0,0.0,0.0,0.0,0.0
374813000000,18714,374813000000,,end,joint2,joint4,joint6,motortom2m,7.07803415141e-05,-8.0047670612e-05,-5.29888808263e-05,1.97429247208e-05,-5.43105913335e-05,1.21637272302e-12,-7.18485161534e-13,-2.57381405258e-13,1.87562366731e-13,-9.63595227218e-13,0.0,0.0,0.0,0.0,0.0
374833000000,18715,374833000000,,end,joint2,joint4,joint6,motortom2m,7.07803415141e-05,-8.0047670612e-05,-5.29888808281e-05,1.97429247208e-05,-5.43105913344e-05,1.21637272162e-12,-7.18485163951e-13,-2.57381407565e-13,1.87562364713e-13,-9.63595229506e-13,0.0,0.0,0.0,0.0,0.0
374855000000,18716,374853000000,,end,joint2,joint4,joint6,motortom2m,7.07803415141e-05,-8.0047670612e-05,-5.29888808263e-05,1.974292472e-05,-5.43105913335e-05,1.21637272256e-12,-7.18485162333e-13,-2.5738140602e-13,1.87562366064e-13,-9.63595227975e-13,0.0,0.0,0.0,0.0,0.0
374855000000,2302,374848000000,,motortom2m,joint2,joint4,joint6,end,-5.43105913344e-05,-8.0047670612e-05,-5.29888808281e-05,1.97429247208e-05,7.07803415141e-05,-9.63595229506e-13,-7.18485163951e-13,-2.57381407565e-13,1.87562364713e-13,1.21637272162e-12,0.0,0.0,0.0,0.0,0.0
374873000000,18717,374873000000,,end,joint2,joint4,joint6,motortom2m,7.07803415141e-05,-8.0047670612e-05,-5.29888808263e-05,1.97429247208e-05,-5.43105913335e-05,1.21637272211e-12,-7.18485163106e-13,-2.57381406758e-13,1.87562365419e-13,-9.63595228706e-13,0.0,0.0,0.0,0.0,0.0
374895000000,18718,374893000000,,end,joint2,joint4,joint6,motortom2m,7.07803415141e-05,-8.0047670612e-05,-5.29888808263e-05,1.974292472e-05,-5.43105913335e-05,1.21637272149e-12,-7.18485164179e-13,-2.57381407783e-13,1.87562364524e-13,-9.63595229722e-13,0.0,0.0,0.0,0.0,0.0
374913000000,18719,374913000000,,end,joint2,joint4,joint6,motortom2m,7.07803415141e-05,-8.0047670612e-05,-5.29888808254e-05,1.97429247208e-05,-5.43105913335e-05,1.21637272272e-12,-7.18485162061e-13,-2.57381405762e-13,1.8756236629e-13,-9.63595227717e-13,0.0,0.0,0.0,0.0,0.0
374933000000,18720,374933000000,,end,joint2,joint4,joint6,motortom2m,7.07803415141e-05,-8.0047670612e-05,-5.29888808263e-05,1.974292472e-05,-5.43105913335e-05,1.21637272067e-12,-7.18485165597e-13,-2.57381409137e-13,1.8756236334e-13,-9.63595231065e-13,0.0,0.0,0.0,0.0,0.0
374948000000,2303,374947000000,,motortom2m,joint2,joint4,joint6,end,-5.43105913335e-05,-8.0047670612e-05,-5.29888808263e-05,1.974292472e-05,7.07803415141e-05,-9.63595231065e-13,-7.18485165597e-13,-2.57381409137e-13,1.8756236334e-13,1.21637272067e-12,0.0,0.0,0.0,0.0,0.0
374953000000,18721,374953000000,,end,joint2,joint4,joint6,motortom2m,7.07803415141e-05,-8.0047670612e-05,-5.29888808263e-05,1.97429247208e-05,-5.43105913335e-05,1.2163727229e-12,-7.18485161755e-13,-2.57381405469e-13,1.87562366546e-13,-9.63595227427e-13,0.0,0.0,0.0,0.0,0.0
374973000000,18722,374973000000,,end,joint2,joint4,joint6,motortom2m,7.07803415141e-05,-8.0047670612e-05,-5.29888808263e-05,1.974292472e-05,-5.43105913335e-05,1.21637272204e-12,-7.18485163225e-13,-2.57381406872e-13,1.8756236532e-13,-9.63595228819e-13,0.0,0.0,0.0,0.0,0.0
374993000000,18723,374993000000,,end,joint2,joint4,joint6,motortom2m,7.07803415141e-05,-8.0047670612e-05,-5.29888808263e-05,1.97429247208e-05,-5.43105913335e-05,1.2163727214e-12,-7.18485164339e-13,-2.57381407936e-13,1.87562364389e-13,-9.63595229874e-13,0.0,0.0,0.0,0.0,0.0
375013000000,18724,375013000000,,end,joint2,joint4,joint6,motortom2m,7.07803415141e-05,-8.00476706129e-05,-5.29888808263e-05,1.974292472e-05,-5.43105913335e-05,1.21637272282e-12,-7.18485161878e-13,-2.57381405587e-13,1.87562366443e-13,-9.63595227544e-13,0.0,0.0,0.0,0.0,0.0
375033000000,18725,375033000000,,end,joint2,joint4,joint6,motortom2m,7.0780341515e-05,-8.00476706129e-05,-5.29888808263e-05,1.97429247208e-05,-5.43105913335e-05,1.21637272234e-12,-7.18485162715e-13,-2.57381406385e-13,1.87562365745e-13,-9.63595228336e-13,0.0,0.0,0.0,0.0,0.0
375050000000,2304,375047000000,,motortom2m,joint2,joint4,joint6,end,-5.43105913335e-05,-8.00476706129e-05,-5.29888808263e-05,1.97429247208e-05,7.0780341515e-05,-9.63595228336e-13,-7.18485162715e-13,-2.57381406385e-13,1.87562365745e-13,1.21637272234e-12,0.0,0.0,0.0,0.0,0.0
375053000000,18726,375053000000,,end,joint2,joint4,joint6,motortom2m,7.0780341515e-05,-8.00476706129e-05,-5.29888808281e-05,1.974292472e-05,-5.43105913335e-05,1.21637272083e-12,-7.18485165319e-13,-2.57381408872e-13,1.87562363571e-13,-9.63595230802e-13,0.0,0.0,0.0,0.0,0.0
375073000000,18727,375073000000,,end,joint2,joint4,joint6,motortom2m,7.0780341515e-05,-8.00476706138e-05,-5.29888808263e-05,1.97429247208e-05,-5.43105913335e-05,1.21637272146e-12,-7.1848516418e-13,-2.57381407792e-13,1.87562364507e-13,-9.63595229719e-13,0.0,0.0,0.0,0.0,0.0
375093000000,18728,375093000000,,end,joint2,joint4,joint6,motortom2m,7.0780341515e-05,-8.00476706138e-05,-5.29888808263e-05,1.974292472e-05,-5.43105913335e-05,1.21637272141e-12,-7.18485164312e-13,-2.5738140791e-13,1.87562364412e-13,-9.63595229848e-13,0.0,0.0,0.0,0.0,0.0
375113000000,18729,375113000000,,end,joint2,joint4,joint6,motortom2m,7.0780341515e-05,-8.00476706138e-05,-5.29888808263e-05,1.97429247208e-05,-5.43105913335e-05,1.21637272155e-12,-7.18485164079e-13,-2.57381407687e-13,1.87562364607e-13,-9.63595229628e-13,0.0,0.0,0.0,0.0,0.0
375133000000,18730,375133000000,,end,joint2,joint4,joint6,motortom2m,7.0780341515e-05,-8.00476706138e-05,-5.29888808254e-05,1.974292472e-05,-5.43105913335e-05,1.21637272327e-12,-7.18485161069e-13,-2.57381404821e-13,1.87562367105e-13,-9.63595226773e-13,0.0,0.0,0.0,0.0,0.0
375148000000,2305,375147000000,,motortom2m,joint2,joint4,joint6,end,-5.43105913335e-05,-8.00476706138e-05,-5.29888808254e-05,1.974292472e-05,7.0780341515e-05,-9.63595226773e-13,-7.18485161069e-13,-2.57381404821e-13,1.87562367105e-13,1.21637272327e-12,0.0,0.0,0.0,0.0,0.0
375153000000,18731,375153000000,,end,joint2,joint4,joint6,motortom2m,7.0780341515e-05,-8.00476706138e-05,-5.29888808263e-05,1.97429247208e-05,-5.43105913335e-05,1.21637272258e-12,-7.184851623e-13,-2.57381405989e-13,1.87562366091e-13,-9.63595227944e-13,0.0,0.0,0.0,0.0,0.0
375173000000,18732,375173000000,,end,joint2,joint4,joint6,motortom2m,7.0780341515e-05,-8.00476706138e-05,-5.29888808263e-05,1.974292472e-05,-5.43105913335e-05,1.21637272366e-12,-7.18485160443e-13,-2.57381404216e-13,1.87562367641e-13,-9.63595226185e-13,0.0,0.0,0.0,0.0,0.0
375193000000,18733,375193000000,,end,joint2,joint4,joint6,motortom2m,7.0780341515e-05,-8.00476706138e-05,-5.29888808263e-05,1.97429247208e-05,-5.43105913335e-05,1.21637272235e-12,-7.18485162692e-13,-2.57381406364e-13,1.87562365764e-13,-9.63595228315e-13,0.0,0.0,0.0,0.0,0.0
375213000000,18734,375213000000,,end,joint2,joint4,joint6,motortom2m,7.0780341515e-05,-8.00476706138e-05,-5.29888808263e-05,1.974292472e-05,-5.43105913335e-05,1.21637272091e-12,-7.1848516513e-13,-2.57381408699e-13,1.87562363714e-13,-9.63595230618e-13,0.0,0.0,0.0,0.0,0.0
375233000000,18735,375233000000,,end,joint2,joint4,joint6,motortom2m,7.0780341515e-05,-8.00476706138e-05,-5.29888808263e-05,1.97429247208e-05,-5.43105913335e-05,1.21637272293e-12,-7.18485161698e-13,-2.57381405415e-13,1.87562366593e-13,-9.63595227374e-13,0.0,0.0,0.0,0.0,0.0
375248000000,2306,375247000000,,motortom2m,joint2,joint4,joint6,end,-5.43105913335e-05,-8.00476706138e-05,-5.29888808263e-05,1.97429247208e-05,7.0780341515e-05,-9.63595227374e-13,-7.18485161698e-13,-2.57381405415e-13,1.87562366593e-13,1.21637272293e-12,0.0,0.0,0.0,0.0,0.0
375253000000,18736,375253000000,,end,joint2,joint4,joint6,motortom2m,7.0780341515e-05,-8.00476706138e-05,-5.29888808263e-05,1.974292472e-05,-5.43105913335e-05,1.21637272151e-12,-7.18485164134e-13,-2.5738140774e-13,1.87562364561e-13,-9.6359522968e-13,0.0,0.0,0.0,0.0,0.0
375273000000,18737,375273000000,,end,joint2,joint4,joint6,motortom2m,7.0780341515e-05,-8.00476706138e-05,-5.29888808281e-05,1.97429247208e-05,-5.43105913335e-05,1.21637272139e-12,-7.18485164354e-13,-2.5738140795e-13,1.87562364377e-13,-9.63595229889e-13,0.0,0.0,0.0,0.0,0.0
375293000000,18738,375293000000,,end,joint2,joint4,joint6,motortom2m,7.0780341515e-05,-8.00476706129e-05,-5.29888808263e-05,1.974292472e-05,-5.43105913335e-05,1.21637272141e-12,-7.18485164254e-13,-2.57381407863e-13,1.87562364445e-13,-9.63595229789e-13,0.0,0.0,0.0,0.0,0.0
375313000000,18739,375313000000,,end,joint2,joint4,joint6,motortom2m,7.0780341515e-05,-8.00476706129e-05,-5.29888808263e-05,1.97429247208e-05,-5.43105913335e-05,1.21637272196e-12,-7.18485163366e-13,-2.57381407007e-13,1.87562365202e-13,-9.63595228953e-13,0.0,0.0,0.0,0.0,0.0
375333000000,18740,375333000000,,end,joint2,joint4,joint6,motortom2m,7.0780341515e-05,-8.00476706129e-05,-5.29888808263e-05,1.974292472e-05,-5.43105913335e-05,1.21637272247e-12,-7.18485162493e-13,-2.57381406173e-13,1.87562365931e-13,-9.63595228126e-13,0.0,0.0,0.0,0.0,0.0
375348000000,2307,375347000000,,motortom2m,joint2,joint4,joint6,end,-5.43105913335e-05,-8.00476706129e-05,-5.29888808263e-05,1.974292472e-05,7.0780341515e-05,-9.63595228126e-13,-7.18485162493e-13,-2.57381406173e-13,1.87562365931e-13,1.21637272247e-12,0.0,0.0,0.0,0.0,0.0
375353000000,18741,375353000000,,end,joint2,joint4,joint6,motortom2m,7.0780341515e-05,-8.0047670612e-05,-5.29888808254e-05,1.97429247208e-05,-5.43105913335e-05,1.21637272281e-12,-7.18485162061e-13,-2.57381405737e-13,1.87562366336e-13,-9.6359522773e-13,0.0,0.0,0.0,0.0,0.0
375373000000,18742,375373000000,,end,joint2,joint4,joint6,motortom2m,7.0780341515e-05,-8.0047670612e-05,-5.29888808263e-05,1.974292472e-05,-5.43105913335e-05,1.21637272354e-12,-7.18485160652e-13,-2.57381404416e-13,1.87562367467e-13,-9.63595226383e-13,0.0,0.0,0.0,0.0,0.0
375393000000,18743,375393000000,,end,joint2,joint4,joint6,motortom2m,7.0780341515e-05,-8.0047670612e-05,-5.29888808263e-05,1.974292472e-05,-5.43105913335e-05,1.21637272154e-12,-7.18485164091e-13,-2.57381407699e-13,1.87562364597e-13,-9.63595229639e-13,0.0,0.0,0.0,0.0,0.0
375413000000,18744,375413000000,,end,joint2,joint4,joint6,motortom2m,7.0780341515e-05,-8.0047670612e-05,-5.29888808263e-05,1.974292472e-05,-5.43105913335e-05,1.2163727221e-12,-7.18485163282e-13,-2.57381406903e-13,1.87562365317e-13,-9.63595228886e-13,0.0,0.0,0.0,0.0,0.0
375433000000,18745,375433000000,,end,joint2,joint4,joint6,motortom2m,7.0780341515e-05,-8.0047670612e-05,-5.29888808263e-05,1.974292472e-05,-5.43105913335e-05,1.21637272257e-12,-7.18485162475e-13,-2.57381406133e-13,1.8756236599e-13,-9.63595228123e-13,0.0,0.0,0.0,0.0,0.0
375448000000,2308,375447000000,,motortom2m,joint2,joint4,joint6,end,-5.43105913335e-05,-8.0047670612e-05,-5.29888808263e-05,1.974292472e-05,7.0780341515e-05,-9.63595228123e-13,-7.18485162475e-13,-2.57381406133e-13,1.8756236599e-13,1.21637272257e-12,0.0,0.0,0.0,0.0,0.0
375453000000,18746,375453000000,,end,joint2,joint4,joint6,motortom2m,7.0780341515e-05,-8.0047670612e-05,-5.29888808263e-05,1.974292472e-05,-5.43105913335e-05,1.21637272319e-12,-7.1848516125e-13,-2.57381404987e-13,1.87562366968e-13,-9.6359522695e-13,0.0,0.0,0.0,0.0,0.0
375473000000,18747,375473000000,,end,joint2,joint4,joint6,motortom2m,7.0780341515e-05,-8.0047670612e-05,-5.29888808263e-05,1.974292472e-05,-5.43105913335e-05,1.21637272266e-12,-7.18485162163e-13,-2.57381405858e-13,1.87562366206e-13,-9.63595227813e-13,0.0,0.0,0.0,0.0,0.0
375493000000,18748,375493000000,,end,joint2,joint4,joint6,motortom2m,7.0780341515e-05,-8.0047670612e-05,-5.29888808281e-05,1.974292472e-05,-5.43105913335e-05,1.216372723e-12,-7.18485161736e-13,-2.57381405427e-13,1.87562366608e-13,-9.63595227423e-13,0.0,0.0,0.0,0.0,0.0
375513000000,18749,375513000000,,end,joint2,joint4,joint6,motortom2m,7.0780341515e-05,-8.0047670612e-05,-5.29888808263e-05,1.974292472e-05,-5.43105913335e-05,1.21637272257e-12,-7.18485162313e-13,-2.57381406002e-13,1.8756236608e-13,-9.63595227955e-13,0.0,0.0,0.0,0.0,0.0
375533000000,18750,375533000000,,end,joint2,joint4,joint6,motortom2m,7.0780341515e-05,-8.0047670612e-05,-5.29888808263e-05,1.974292472e-05,-5.43105913335e-05,1.21637272307e-12,-7.18485161453e-13,-2.57381405181e-13,1.87562366798e-13,-9.63595227141e-13,0.0,0.0,0.0,0.0,0.0
375548000000,2309,375547000000,,motortom2m,joint2,joint4,joint6,end,-5.43105913335e-05,-8.0047670612e-05,-5.29888808263e-05,1.974292472e-05,7.0780341515e-05,-9.63595227141e-13,-7.18485161453e-13,-2.57381405181e-13,1.87562366798e-13,1.21637272307e-12,0.0,0.0,0.0,0.0,0.0
375553000000,18751,375553000000,,end,joint2,joint4,joint6,motortom2m,7.0780341515e-05,-8.0047670612e-05,-5.29888808263e-05,1.974292472e-05,-5.43105913335e-05,1.21637272138e-12,-7.18485164364e-13,-2.5738140796e-13,1.87562364368e-13,-9.63595229897e-13,0.0,0.0,0.0,0.0,0.0
375573000000,18752,375573000000,,end,joint2,joint4,joint6,motortom2m,7.0780341515e-05,-8.00476706138e-05,-5.29888808254e-05,1.974292472e-05,-5.43105913335e-05,1.21637272261e-12,-7.18485162244e-13,-2.57381405936e-13,1.87562366138e-13,-9.63595227891e-13,0.0,0.0,0.0,0.0,0.0
375593000000,18753,375593000000,,end,joint2,joint4,joint6,motortom2m,7.0780341515e-05,-8.00476706129e-05,-5.29888808263e-05,1.974292472e-05,-5.43105913335e-05,1.21637272316e-12,-7.18485161308e-13,-2.57381405042e-13,1.87562366919e-13,-9.63595227004e-13,0.0,0.0,0.0,0.0,0.0
375613000000,18754,375613000000,,end,joint2,joint4,joint6,motortom2m,7.0780341515e-05,-8.00476706129e-05,-5.29888808263e-05,1.974292472e-05,-5.43105913318e-05,1.21637272082e-12,-7.18485165337e-13,-2.57381408889e-13,1.87562363556e-13,-9.63595230819e-13,0.0,0.0,0.0,0.0,0.0
375633000000,18755,375633000000,,end,joint2,joint4,joint6,motortom2m,7.0780341515e-05,-8.0047670612e-05,-5.29888808263e-05,1.974292472e-05,-5.43105913335e-05,1.21637272406e-12,-7.18485159909e-13,-2.57381403682e-13,1.87562368133e-13,-9.63595225693e-13,0.0,0.0,0.0,0.0,0.0
375649000000,2310,375648000000,,motortom2m,joint2,joint4,joint6,end,-5.43105913335e-05,-8.0047670612e-05,-5.29888808263e-05,1.974292472e-05,7.0780341515e-05,-9.63595225693e-13,-7.18485159909e-13,-2.57381403682e-13,1.87562368133e-13,1.21637272406e-12,0.0,0.0,0.0,0.0,0.0
375653000000,18756,375653000000,,end,joint2,joint4,joint6,motortom2m,7.0780341515e-05,-8.0047670612e-05,-5.29888808263e-05,1.974292472e-05,-5.43105913335e-05,1.2163727231e-12,-7.18485161404e-13,-2.57381405134e-13,1.87562366839e-13,-9.63595227095e-13,0.0,0.0,0.0,0.0,0.0
375673000000,18757,375673000000,,end,joint2,joint4,joint6,motortom2m,7.0780341515e-05,-8.0047670612e-05,-5.29888808263e-05,1.974292472e-05,-5.43105913335e-05,1.21637272157e-12,-7.18485164044e-13,-2.57381407655e-13,1.87562364635e-13,-9.63595229595e-13,0.0,0.0,0.0,0.0,0.0
375693000000,18758,375693000000,,end,joint2,joint4,joint6,motortom2m,7.0780341515e-05,-8.0047670612e-05,-5.29888808263e-05,1.974292472e-05,-5.43105913335e-05,1.21637272353e-12,-7.18485160657e-13,-2.57381404421e-13,1.87562367462e-13,-9.63595226387e-13,0.0,0.0,0.0,0.0,0.0
375713000000,18759,375713000000,,end,joint2,joint4,joint6,motortom2m,7.0780341515e-05,-8.0047670612e-05,-5.29888808281e-05,1.974292472e-05,-5.43105913335e-05,1.21637272275e-12,-7.18485162171e-13,-2.57381405842e-13,1.87562366245e-13,-9.63595227835e-13,0.0,0.0,0.0,0.0,0.0
375733000000,18760,375733000000,,end,joint2,joint4,joint6,motortom2m,7.0780341515e-05,-8.0047670612e-05,-5.29888808263e-05,1.974292472e-05,-5.43105913335e-05,1.2163727217e-12,-7.18485163819e-13,-2.5738140744e-13,1.87562364823e-13,-9.63595229381e-13,0.0,0.0,0.0,0.0,0.0
375748000000,2311,375747000000,,motortom2m,joint2,joint4,joint6,end,-5.43105913335e-05,-8.0047670612e-05,-5.29888808263e-05,1.974292472e-05,7.0780341515e-05,-9.63595229381e-13,-7.18485163819e-13,-2.5738140744e-13,1.87562364823e-13,1.2163727217e-12,0.0,0.0,0.0,0.0,0.0
375753000000,18761,375753000000,,end,joint2,joint4,joint6,motortom2m,7.0780341515e-05,-8.0047670612e-05,-5.29888808263e-05,1.974292472e-05,-5.43105913335e-05,1.21637272279e-12,-7.18485161945e-13,-2.5738140565e-13,1.87562366388e-13,-9.63595227607e-13,0.0,0.0,0.0,0.0,0.0
375773000000,18762,375773000000,,end,joint2,joint4,joint6,motortom2m,7.07803415141e-05,-8.0047670612e-05,-5.29888808263e-05,1.97429247191e-05,-5.43105913344e-05,1.21637272261e-12,-7.1848516224e-13,-2.57381405932e-13,1.87562366142e-13,-9.63595227886e-13,0.0,0.0,0.0,0.0,0.0
375793000000,18763,375793000000,,end,joint2,joint4,joint6,motortom2m,7.07803415141e-05,-8.0047670612e-05,-5.29888808254e-05,1.974292472e-05,-5.43105913335e-05,1.21637272239e-12,-7.1848516279e-13,-2.57381406433e-13,1.87562365727e-13,-9.63595228421e-13,0.0,0.0,0.0,0.0,0.0
375813000000,18764,375813000000,,end,joint2,joint4,joint6,motortom2m,7.07803415141e-05,-8.0047670612e-05,-5.29888808263e-05,1.97429247191e-05,-5.43105913335e-05,1.21637272339e-12,-7.18485160901e-13,-2.57381404654e-13,1.87562367259e-13,-9.63595226619e-13,0.0,0.0,0.0,0.0,0.0
375833000000,18765,375833000000,,end,joint2,joint4,joint6,motortom2m,7.07803415141e-05,-8.0047670612e-05,-5.29888808263e-05,1.974292472e-05,-5.43105913335e-05,1.21637272244e-12,-7.18485162536e-13,-2.57381406215e-13,1.87562365894e-13,-9.63595228167e-13,0.0,0.0,0.0,0.0,0.0
375848000000,2312,375847000000,,motortom2m,joint2,joint4,joint6,end,-5.43105913335e-05,-8.0047670612e-05,-5.29888808263e-05,1.974292472e-05,7.07803415141e-05,-9.63595228167e-13,-7.18485162536e-13,-2.57381406215e-13,1.87562365894e-13,1.21637272244e-12,0.0,0.0,0.0,0.0,0.0
375853000000,18766,375853000000,,end,joint2,joint4,joint6,motortom2m,7.07803415141e-05,-8.00476706138e-05,-5.29888808263e-05,1.97429247191e-05,-5.43105913335e-05,1.2163727227e-12,-7.18485161997e-13,-2.57381405715e-13,1.87562366315e-13,-9.63595227648e-13,0.0,0.0,0.0,0.0,0.0
375873000000,18767,375873000000,,end,joint2,joint4,joint6,motortom2m,7.07803415141e-05,-8.00476706129e-05,-5.29888808263e-05,1.974292472e-05,-5.43105913335e-05,1.21637272181e-12,-7.1848516363e-13,-2.57381407259e-13,1.87562364981e-13,-9.63595229203e-13,0.0,0.0,0.0,0.0,0.0
375893000000,18768,375893000000,,end,joint2,joint4,joint6,motortom2m,7.07803415141e-05,-8.00476706129e-05,-5.29888808263e-05,1.97429247191e-05,-5.43105913335e-05,1.21637272113e-12,-7.18485164803e-13,-2.57381408379e-13,1.87562364002e-13,-9.63595230313e-13,0.0,0.0,0.0,0.0,0.0
375913000000,18769,375913000000,,end,joint2,joint4,joint6,motortom2m,7.07803415141e-05,-8.00476706138e-05,-5.29888808263e-05,1.974292472e-05,-5.43105913335e-05,1.21637272193e-12,-7.18485163321e-13,-2.5738140698e-13,1.87562365209e-13,-9.63595228902e-13,0.0,0.0,0.0,0.0,0.0
375933000000,18770,375933000000,,end,joint2,joint4,joint6,motortom2m,7.07803415141e-05,-8.00476706138e-05,-5.29888808281e-05,1.974292472e-05,-5.43105913335e-05,1.2163727227e-12,-7.18485161997e-13,-2.57381405715e-13,1.87562366315e-13,-9.63595227648e-13,0.0,0.0,0.0,0.0,0.0
375948000000,2313,375947000000,,motortom2m,joint2,joint4,joint6,end,-5.43105913335e-05,-8.00476706138e-05,-5.29888808281e-05,1.974292472e-05,7.07803415141e-05,-9.63595227648e-13,-7.18485161997e-13,-2.57381405715e-13,1.87562366315e-13,1.2163727227e-12,0.0,0.0,0.0,0.0,0.0
375953000000,18771,375953000000,,end,joint2,joint4,joint6,motortom2m,7.07803415141e-05,-8.00476706138e-05,-5.29888808263e-05,1.974292472e-05,-5.43105913335e-05,1.21637272121e-12,-7.18485164614e-13,-2.57381408206e-13,1.87562364145e-13,-9.6359523013e-13,0.0,0.0,0.0,0.0,0.0
375973000000,18772,375973000000,,end,joint2,joint4,joint6,motortom2m,7.07803415141e-05,-8.00476706138e-05,-5.29888808263e-05,1.974292472e-05,-5.43105913335e-05,1.21637272282e-12,-7.18485161895e-13,-2.57381405602e-13,1.8756236643e-13,-9.6359522756e-13,0.0,0.0,0.0,0.0,0.0
375993000000,18773,375993000000,,end,joint2,joint4,joint6,motortom2m,7.07803415141e-05,-8.00476706138e-05,-5.29888808263e-05,1.974292472e-05,-5.43105913335e-05,1.21637272285e-12,-7.18485161739e-13,-2.57381405469e-13,1.8756236653e-13,-9.63595227404e-13,0.0,0.0,0.0,0.0,0.0
376013000000,18774,376013000000,,end,joint2,joint4,joint6,motortom2m,7.07803415141e-05,-8.00476706138e-05,-5.29888808254e-05,1.974292472e-05,-5.43105913335e-05,1.21637272227e-12,-7.18485162826e-13,-2.57381406492e-13,1.87562365652e-13,-9.63595228442e-13,0.0,0.0,0.0,0.0,0.0
376033000000,18775,376033000000,,end,joint2,joint4,joint6,motortom2m,7.07803415141e-05,-8.00476706138e-05,-5.29888808263e-05,1.974292472e-05,-5.43105913335e-05,1.21637272259e-12,-7.18485162274e-13,-2.57381405965e-13,1.87562366113e-13,-9.63595227919e-13,0.0,0.0,0.0,0.0,0.0
376048000000,2314,376048000000,,motortom2m,joint2,joint4,joint6,end,-5.43105913335e-05,-8.00476706138e-05,-5.29888808263e-05,1.974292472e-05,7.07803415141e-05,-9.63595227919e-13,-7.18485162274e-13,-2.57381405965e-13,1.87562366113e-13,1.21637272259e-12,0.0,0.0,0.0,0.0,0.0
376053000000,18776,376053000000,,end,joint2,joint4,joint6,motortom2m,7.07803415141e-05,-8.00476706138e-05,-5.29888808263e-05,1.974292472e-05,-5.43105913335e-05,1.21637272191e-12,-7.18485163457e-13,-2.57381407093e-13,1.87562365126e-13,-9.63595229039e-13,0.0,0.0,0.0,0.0,0.0
376073000000,18777,376073000000,,end,joint2,joint4,joint6,motortom2m,7.07803415141e-05,-8.00476706138e-05,-5.29888808263e-05,1.974292472e-05,-5.43105913335e-05,1.21637272232e-12,-7.18485162635e-13,-2.57381406325e-13,1.87562365782e-13,-9.63595228251e-13,0.0,0.0,0.0,0.0,0.0
376093000000,18778,376093000000,,end,joint2,joint4,joint6,motortom2m,5.62892230134e-05,-8.96272922448e-05,-7.09756542516e-05,-9.69433305364e-06,-6.85988791949e-05,1.21752040913e-12,-7.23338708071e-13,-2.56061487664e-13,1.91467293317e-13,-9.74632963745e-13,0.0,0.0,0.0,0.0,0.0
376113000000,18779,376113000000,,end,joint2,joint4,joint6,motortom2m,-5.67072078512e-05,-0.000164325670657,-0.000211229921003,-0.000239235280079,-0.000180013711057,1.23311750561e-12,-7.46169569569e-13,-2.32582208199e-13,2.32438982941e-13,-1.04562794285e-12,0.0,0.0,0.0,0.0,0.0
376133000000,18780,376133000000,,end,joint2,joint4,joint6,motortom2m,-0.000352378778629,-0.000359784825524,-0.000578225577783,-0.000839862502038,-0.000471546798365,1.27909610242e-12,-7.94240236493e-13,-1.60896481954e-13,3.47825455089e-13,-1.21968193956e-12,0.0,0.0,0.0,0.0,0.0
376148000000,2315,376147000000,,motortom2m,joint2,joint4,joint6,end,-0.000471546798365,-0.000359784825524,-0.000578225577783,-0.000839862502038,-0.000352378778629,-1.21968193956e-12,-7.94240236493e-13,-1.60896481954e-13,3.47825455089e-13,1.27909610242e-12,0.0,0.0,0.0,0.0,0.0
376153000000,18781,376153000000,,end,joint2,joint4,joint6,motortom2m,-0.000888325014191,-0.000714081987003,-0.00124345673342,-0.00192858367241,-0.000999991451578,1.36656177702e-12,-8.7205618723e-13,-2.27731017584e-14,5.63508357002e-13,-1.52582284479e-12,0.0,0.0,0.0,0.0,0.0
376173000000,18782,376173000000,,end,joint2,joint4,joint6,motortom2m,-0.00169883505128,-0.00124988462249,-0.00224948400417,-0.00357505374279,-0.00179915686604,1.50234174764e-12,-9.81797969875e-13,1.93077958624e-13,8.95241359258e-13,-1.98082329701e-12,0.0,0.0,0.0,0.0,0.0
376193000000,18783,376193000000,,end,joint2,joint4,joint6,motortom2m,-0.00279816877699,-0.00197661949382,-0.00361400715269,-0.00580824024747,-0.00288310333474,1.68956988412e-12,-1.12368081773e-12,4.91951133668e-13,1.35004880783e-12,-2.59095417136e-12,0.0,0.0,0.0,0.0,0.0
376213000000,18784,376213000000,,end,joint2,joint4,joint6,motortom2m,-0.00418383796729,-0.00289264171451,-0.00533393772713,-0.00862308860822,-0.00424937746104,1.92827191602e-12,-1.29631412778e-12,8.74090196929e-13,1.92762344833e-12,-3.35373670513e-12,0.0,0.0,0.0,0.0,0.0
376233000000,18785,376233000000,,end,joint2,joint4,joint6,motortom2m,-0.0058398874255,-0.00398740380702,-0.00738947170009,-0.0119871874389,-0.00588224737146,2.21595079347e-12,-1.49706169371e-12,1.33563247327e-12,2.62172357549e-12,-4.25969521438e-12,0.0,0.0,0.0,0.0,0.0
376251000000,2316,376247000000,,motortom2m,joint2,joint4,joint6,end,-0.00588224737146,-0.00398740380702,-0.00738947170009,-0.0119871874389,-0.0058398874255,-4.25969521438e-12,-1.49706169371e-12,1.33563247327e-12,2.62172357549e-12,2.21595079347e-12,0.0,0.0,0.0,0.0,0.0
376253000000,18786,376253000000,,end,joint2,joint4,joint6,motortom2m,-0.00774017612076,-0.00524362475988,-0.00974816210765,-0.0158474338499,-0.00775593792834,2.54817311623e-12,-1.72240224273e-12,1.86955393882e-12,3.42157161304e-12,-5.29411163133e-12,0.0,0.0,0.0,0.0,0.0
376273000000,18787,376273000000,,end,joint2,joint4,joint6,motortom2m,-0.00985165832656,-0.00663945908502,-0.0123689916884,-0.0201366987534,-0.0098378659427,2.9191567554e-12,-1.96829088817e-12,2.46661566144e-12,4.31325504243e-12,-6.43878391768e-12,0.0,0.0,0.0,0.0,0.0
376293000000,18788,376293000000,,end,joint2,joint4,joint6,motortom2m,-0.0121376647592,-0.00815066587495,-0.0152064455226,-0.0247804921672,-0.0120918753869,3.32235977093e-12,-2.23052119753e-12,3.11631219385e-12,5.28113035731e-12,-7.67378859288e-12,0.0,0.0,0.0,0.0,0.0
376313000000,18789,376313000000,,end,joint2,joint4,joint6,motortom2m,-0.0145611837164,-0.00975277785996,-0.0182145836708,-0.0297036285201,-0.0144814726075,3.75107057904e-12,-2.5050868215e-12,3.8078223448e-12,6.30923009123e-12,-8.97924562099e-12,0.0,0.0,0.0,0.0,0.0
376333000000,18790,376333000000,,end,joint2,joint4,joint6,motortom2m,-0.0170881422155,-0.0114232704654,-0.0213511138134,-0.034836891956,-0.0169730615378,4.19899700148e-12,-2.78854435866e-12,4.53095911251e-12,7.38266923467e-12,-1.03370850809e-11,0.0,0.0,0.0,0.0,0.0
376348000000,2317,376347000000,,motortom2m,joint2,joint4,joint6,end,-0.0169730615378,-0.0114232704654,-0.0213511138134,-0.034836891956,-0.0170881422155,-1.03370850809e-11,-2.78854435866e-12,4.53095911251e-12,7.38266923467e-12,4.19899700148e-12,0.0,0.0,0.0,0.0,0.0
376353000000,18791,376353000000,,end,joint2,joint4,joint6,motortom2m,-0.0196906871323,-0.0131437308688,-0.0245814638891,-0.0401237016392,-0.0195391789107,4.66085480357e-12,-3.07837335889e-12,5.27712041731e-12,8.4890512658e-12,-1.17328086377e-11,0.0,0.0,0.0,0.0,0.0
376373000000,18792,376373000000,,end,joint2,joint4,joint6,motortom2m,-0.0223504663395,-0.0149020270574,-0.0278828547345,-0.0455267770583,-0.0221617294717,5.13295266816e-12,-3.3733352361e-12,6.04023627631e-12,9.61986857047e-12,-1.31572438745e-11,0.0,0.0,0.0,0.0,0.0
376393000000,18793,376393000000,,end,joint2,joint4,joint6,motortom2m,-0.0250619098447,-0.0166944768848,-0.0312483727226,-0.0510348033315,-0.0248352211912,5.61377288701e-12,-3.67382917996e-12,6.81771171687e-12,1.07718953091e-11,-1.46082861841e-11,0.0,0.0,0.0,0.0,0.0
376413000000,18794,376413000000,,end,joint2,joint4,joint6,motortom2m,-0.0278355109298,-0.0185280171288,-0.0346910424023,-0.0566690965107,-0.0275700004774,6.10454476043e-12,-3.9822468462e-12,7.61136105997e-12,1.19485674985e-11,-1.60926263045e-11,0.0,0.0,0.0,0.0,0.0
376433000000,18795,376433000000,,end,joint2,joint4,joint6,motortom2m,-0.0307011072886,-0.0204223725482,-0.0382478991369,-0.0624902688869,-0.0303954873893,6.60981312306e-12,-4.30331819378e-12,8.42833811186e-12,1.31613528293e-11,-1.762745245e-11,0.0,0.0,0.0,0.0,0.0
376448000000,2318,376447000000,,motortom2m,joint2,joint4,joint6,end,-0.0303954873893,-0.0204223725482,-0.0382478991369,-0.0624902688869,-0.0307011072886,-1.762745245e-11,-4.30331819378e-12,8.42833811186e-12,1.31613528293e-11,6.60981312306e-12,0.0,0.0,0.0,0.0,0.0
376453000000,18796,376453000000,,end,joint2,joint4,joint6,motortom2m,-0.0337125955091,-0.0224131724784,-0.0419858408485,-0.0686078059876,-0.0333648241301,7.13785339445e-12,-4.64550368619e-12,9.28167910089e-12,1.44310811979e-11,-1.92437848366e-11,0.0,0.0,0.0,0.0,0.0
376473000000,18797,376473000000,,end,joint2,joint4,joint6,motortom2m,-0.0370412073373,-0.0246136128289,-0.0461174050731,-0.0753695479775,-0.0366468457333,7.71298561997e-12,-5.04049772371e-12,1.02087870283e-11,1.58208566807e-11,-2.10453048611e-11,0.0,0.0,0.0,0.0,0.0
376493000000,18798,376493000000,,end,joint2,joint4,joint6,motortom2m,-0.0408911472468,-0.0271586867398,-0.0508960559996,-0.0831903158195,-0.0404428984441,8.37591807961e-12,-5.4990151897e-12,1.12776917396e-11,1.74244070994e-11,-2.31279820572e-11,0.0,0.0,0.0,0.0,0.0
376513000000,18799,376513000000,,end,joint2,joint4,joint6,motortom2m,-0.0452532973245,-0.0300423666464,-0.0563104762245,-0.0920515873853,-0.044743991972,9.13072775611e-12,-6.00531718101e-12,1.24976452615e-11,1.92466838817e-11,-2.54706915802e-11,0.0,0.0,0.0,0.0,0.0
376533000000,18800,376533000000,,end,joint2,joint4,joint6,motortom2m,-0.0499676369519,-0.033158867962,-0.0621620437705,-0.101628296794,-0.04939234549,9.95190660763e-12,-6.53384156842e-12,1.38288407464e-11,2.12240678952e-11,-2.79788482447e-11,0.0,0.0,0.0,0.0,0.0
376548000000,2319,376547000000,,motortom2m,joint2,joint4,joint6,end,-0.04939234549,-0.033158867962,-0.0621620437705,-0.101628296794,-0.0499676369519,-2.79788482447e-11,-6.53384156842e-12,1.38288407464e-11,2.12240678952e-11,9.95190660763e-12,0.0,0.0,0.0,0.0,0.0
376553000000,18801,376553000000,,end,joint2,joint4,joint6,motortom2m,-0.0548134891949,-0.0363623081221,-0.0681768483792,-0.111472160927,-0.0541703708555,1.08006077352e-11,-7.05914663953e-12,1.52086271837e-11,2.3263154902e-11,-3.05330366115e-11,0.0,0.0,0.0,0.0,0.0
376573000000,18802,376573000000,,end,joint2,joint4,joint6,motortom2m,-0.0595997671938,-0.0395263656274,-0.0741177078034,-0.121195005942,-0.0588896558313,1.16406996133e-11,-7.56573886277e-12,1.6577522467e-11,2.52791975509e-11,-3.30371102249e-11,0.0,0.0,0.0,0.0,0.0
376593000000,18803,376593000000,,end,joint2,joint4,joint6,motortom2m,-0.0642552205534,-0.0426039390877,-0.0798961840999,-0.130652093788,-0.0634799473062,1.24544834057e-11,-8.05769340435e-12,1.79048507617e-11,2.72339131774e-11,-3.54653185339e-11,0.0,0.0,0.0,0.0,0.0
376613000000,18804,376613000000,,end,joint2,joint4,joint6,motortom2m,-0.0689019625984,-0.0456757537725,-0.085663847674,-0.140091485469,-0.068061649398,1.32574162353e-11,-8.56101675417e-12,1.92137745545e-11,2.91691934406e-11,-3.7894299652e-11,0.0,0.0,0.0,0.0,0.0
376633000000,18805,376633000000,,end,joint2,joint4,joint6,motortom2m,-0.0736832427812,-0.0488365073791,-0.091598503672,-0.149804177921,-0.0727760065116,1.40779810008e-11,-9.0818438842e-12,2.055230533e-11,3.11504629878e-11,-4.03887276659e-11,0.0,0.0,0.0,0.0,0.0
376647000000,2320,376647000000,,motortom2m,joint2,joint4,joint6,end,-0.0727760065116,-0.0488365073791,-0.091598503672,-0.149804177921,-0.0736832427812,-4.03887276659e-11,-9.0818438842e-12,2.055230533e-11,3.11504629878e-11,1.40779810008e-11,0.0,0.0,0.0,0.0,0.0
376653000000,18806,376653000000,,end,joint2,joint4,joint6,motortom2m,-0.0786114686542,-0.0520944021493,-0.0977155526878,-0.159776398449,-0.0776352525322,1.49192152684e-11,-9.61276323185e-12,2.19289648386e-11,3.31843573267e-11,-4.29440219994e-11,0.0,0.0,0.0,0.0,0.0
376673000000,18807,376673000000,,end,joint2,joint4,joint6,motortom2m,-0.0836355995628,-0.0554156967152,-0.103951641662,-0.169776398449,-0.0825890612158,1.57672852746e-11,-1.01413038324e-11,2.33290330586e-11,3.52423891391e-11,-4.55221776756e-11,0.0,0.0,0.0,0.0,0.0
376693000000,18808,376693000000,,end,joint2,joint4,joint6,motortom2m,-0.0886793330268,-0.0587499499127,-0.110212061865,-0.179776398449,-0.08756219808,1.66144714156e-11,-1.06634352861e-11,2.4732684804e-11,3.73004440577e-11,-4.80904536982e-11,0.0,0.0,0.0,0.0,0.0
376713000000,18809,376713000000,,end,joint2,joint4,joint6,motortom2m,-0.0936781983682,-0.0620545422086,-0.116416790525,-0.189776398449,-0.0924910948359,1.74545805936e-11,-1.11783612042e-11,2.61220891858e-11,3.93385547263e-11,-5.0624701765e-11,0.0,0.0,0.0,0.0,0.0
376733000000,18810,376733000000,,end,joint2,joint4,joint6,motortom2m,-0.0986166503382,-0.0653191971291,-0.122546532453,-0.199776398449,-0.0973604238199,1.8284356829e-11,-1.16895920341e-11,2.74895395226e-11,4.13490768323e-11,-5.31226488026e-11,0.0,0.0,0.0,0.0,0.0
376748000000,2321,376747000000,,motortom2m,joint2,joint4,joint6,end,-0.0973604238199,-0.0653191971291,-0.122546532453,-0.199776398449,-0.0986166503382,-5.31226488026e-11,-1.16895920341e-11,2.74895395226e-11,4.13490768323e-11,1.8284356829e-11,0.0,0.0,0.0,0.0,0.0
376753000000,18811,376753000000,,end,joint2,joint4,joint6,motortom2m,-0.103539363796,-0.0685734478155,-0.128656739308,-0.209776398449,-0.102214234582,1.91064370448e-11,-1.22003839371e-11,2.88443696821e-11,4.33430455367e-11,-5.56028771822e-11,0.0,0.0,0.0,0.0,0.0
376773000000,18812,376773000000,,end,joint2,joint4,joint6,motortom2m,-0.108462077261,-0.0718276985063,-0.134766946171,-0.219776398449,-0.107068045351,1.99230604048e-11,-1.27084584351e-11,3.01925860776e-11,4.53263445126e-11,-5.80681003351e-11,0.0,0.0,0.0,0.0,0.0
376793000000,18813,376793000000,,end,joint2,joint4,joint6,motortom2m,-0.113384790732,-0.0750819492014,-0.140877153043,-0.229776398449,-0.111921856126,2.07339980835e-11,-1.32137015177e-11,3.15338922207e-11,4.72984997374e-11,-6.05176721037e-11,0.0,0.0,0.0,0.0,0.0
376813000000,18814,376813000000,,end,joint2,joint4,joint6,motortom2m,-0.118307504205,-0.0783361998979,-0.146987359917,-0.239776398449,-0.116775666904,2.15390224114e-11,-1.3716002903e-11,3.28679918235e-11,4.92590393647e-11,-6.29509562704e-11,0.0,0.0,0.0,0.0,0.0
376833000000,18815,376833000000,,end,joint2,joint4,joint6,motortom2m,-0.123230217675,-0.0815904505919,-0.153097566787,-0.249776398449,-0.121629477677,2.23379055685e-11,-1.4215257545e-11,3.41945871685e-11,5.12074920999e-11,-6.53673279684e-11,0.0,0.0,0.0,0.0,0.0
376848000000,2322,376847000000,,motortom2m,joint2,joint4,joint6,end,-0.121629477677,-0.0815904505919,-0.153097566787,-0.249776398449,-0.123230217675,-6.53673279684e-11,-1.4215257545e-11,3.41945871685e-11,5.12074920999e-11,2.23379055685e-11,0.0,0.0,0.0,0.0,0.0
376853000000,18816,376853000000,,end,joint2,joint4,joint6,motortom2m,-0.128152931137,-0.0848447012811,-0.159207773647,-0.259776398449,-0.126483288444,2.31304235436e-11,-1.47113588518e-11,3.55133856584e-11,5.3143392948e-11,-6.77661674524e-11,0.0,0.0,0.0,0.0,0.0
376873000000,18817,376873000000,,end,joint2,joint4,joint6,motortom2m,-0.133075644594,-0.0880989519666,-0.165317980501,-0.269776398449,-0.131337099205,2.39163541244e-11,-1.52042023756e-11,3.6824096472e-11,5.50662803832e-11,-7.01468638671e-11,0.0,0.0,0.0,0.0,0.0
376893000000,18818,376893000000,,end,joint2,joint4,joint6,motortom2m,-0.13799835804,-0.0913532026453,-0.171428187341,-0.279776398449,-0.136190909955,2.46954769017e-11,-1.56936860992e-11,3.81264305e-11,5.69756964069e-11,-7.25088158199e-11,0.0,0.0,0.0,0.0,0.0
376913000000,18819,376913000000,,end,joint2,joint4,joint6,motortom2m,-0.142921071464,-0.0946074533093,-0.177538394154,-0.289776398449,-0.141044720684,2.54675763261e-11,-1.61797051047e-11,3.94201054461e-11,5.88711909912e-11,-7.48514264575e-11,0.0,0.0,0.0,0.0,0.0
376933000000,18820,376933000000,,end,joint2,joint4,joint6,motortom2m,-0.147843784872,-0.0978617039624,-0.183648600947,-0.299776398449,-0.145898531397,2.62324368972e-11,-1.66621601397e-11,4.07048378448e-11,6.07523152116e-11,-7.71741118507e-11,0.0,0.0,0.0,0.0,0.0
376948000000,2323,376947000000,,motortom2m,joint2,joint4,joint6,end,-0.145898531397,-0.0978617039624,-0.183648600947,-0.299776398449,-0.147843784872,-7.71741118507e-11,-1.66621601397e-11,4.07048378448e-11,6.07523152116e-11,2.62324368972e-11,0.0,0.0,0.0,0.0,0.0
376953000000,18821,376953000000,,end,joint2,joint4,joint6,motortom2m,-0.152766498279,-0.101115954615,-0.189758807739,-0.309776398449,-0.150752342109,2.69898470156e-11,-1.71409510939e-11,4.19803494075e-11,6.26186268444e-11,-7.94762950387e-11,0.0,0.0,0.0,0.0,0.0
376973000000,18822,376973000000,,end,joint2,joint4,joint6,motortom2m,-0.157689211702,-0.104370205279,-0.195869014551,-0.319776398449,-0.155606152837,2.77395983448e-11,-1.76159782728e-11,4.32463659583e-11,6.44696895123e-11,-8.17574074729e-11,0.0,0.0,0.0,0.0,0.0
376993000000,18823,376993000000,,end,joint2,joint4,joint6,motortom2m,-0.162611925147,-0.107624455956,-0.20197922139,-0.329776398449,-0.160459963587,2.8481483661e-11,-1.80871461997e-11,4.45026138882e-11,6.63050696279e-11,-8.40168927814e-11,0.0,0.0,0.0,0.0,0.0
377013000000,18824,377013000000,,end,joint2,joint4,joint6,motortom2m,-0.167534638604,-0.110878706642,-0.208089428244,-0.339776398449,-0.165313774348,2.92153001704e-11,-1.85543578845e-11,4.57488256481e-11,6.81243411938e-11,-8.62542014595e-11,0.0,0.0,0.0,0.0,0.0
377033000000,18825,377033000000,,end,joint2,joint4,joint6,motortom2m,-0.172457352066,-0.114132957331,-0.214199635104,-0.349776398449,-0.170167585114,2.99408476861e-11,-1.90175185541e-11,4.69847366418e-11,6.99270833295e-11,-8.84687949231e-11,0.0,0.0,0.0,0.0,0.0
377051000000,2324,377047000000,,motortom2m,joint2,joint4,joint6,end,-0.170167585114,-0.114132957331,-0.214199635104,-0.349776398449,-0.172457352066,-8.84687949231e-11,-1.90175185541e-11,4.69847366418e-11,6.99270833295e-11,2.99408476861e-11,0.0,0.0,0.0,0.0,0.0
377053000000,18826,377053000000,,end,joint2,joint4,joint6,motortom2m,-0.177380065535,-0.117387208025,-0.220309841973,-0.359776398449,-0.175021395887,3.06579282866e-11,-1.94765357174e-11,4.82100848272e-11,7.1712879724e-11,-9.06601453285e-11,0.0,0.0,0.0,0.0,0.0
377073000000,18827,377073000000,,end,joint2,joint4,joint6,motortom2m,-0.182302779008,-0.120641458721,-0.226420048847,-0.369776398449,-0.179875206664,3.13663509993e-11,-1.99313119155e-11,4.942461823e-11,7.3481325525e-11,-9.28277293678e-11,0.0,0.0,0.0,0.0,0.0
377093000000,18828,377093000000,,end,joint2,joint4,joint6,motortom2m,-0.187225492479,-0.123895709416,-0.232530255719,-0.379776398449,-0.18472901744,3.20659220724e-11,-2.038176081e-11,5.06280791489e-11,7.52320132892e-11,-9.49710431316e-11,0.0,0.0,0.0,0.0,0.0
377113000000,18829,377113000000,,end,joint2,joint4,joint6,motortom2m,-0.192148205944,-0.127149960107,-0.238640462583,-0.389776398449,-0.189582828209,3.2756454504e-11,-2.08277916395e-11,5.18202196361e-11,7.69645468539e-11,-9.70895881099e-11,0.0,0.0,0.0,0.0,0.0
377133000000,18830,377133000000,,end,joint2,joint4,joint6,motortom2m,-0.197070919403,-0.130404210794,-0.244750669438,-0.399776398449,-0.194436638972,3.34377658782e-11,-2.12693126883e-11,5.30007980708e-11,7.86785382579e-11,-9.91828744385e-11,0.0,0.0,0.0,0.0,0.0
377148000000,2325,377147000000,,motortom2m,joint2,joint4,joint6,end,-0.194436638972,-0.130404210794,-0.244750669438,-0.399776398449,-0.197070919403,-9.91828744385e-11,-2.12693126883e-11,5.30007980708e-11,7.86785382579e-11,3.34377658782e-11,0.0,0.0,0.0,0.0,0.0
377153000000,18831,377153000000,,end,joint2,joint4,joint6,motortom2m,-0.20199363286,-0.13365846148,-0.250860876293,-0.409776398449,-0.199290449734,3.41096754024e-11,-2.17062364156e-11,5.41695742613e-11,8.03736034704e-11,-1.01250425802e-10,0.0,0.0,0.0,0.0,0.0
377173000000,18832,377173000000,,end,joint2,joint4,joint6,motortom2m,-0.206916346325,-0.136912712171,-0.256971083156,-0.419776398449,-0.204144260502,3.47720047837e-11,-2.21384781494e-11,5.53263108913e-11,8.20493637505e-11,-1.03291778456e-10,0.0,0.0,0.0,0.0,0.0
